{
"type": "FeatureCollection",
"name": "schools",
"crs": { "type": "name", "properties": { "name": "urn:ogc:def:crs:OGC:1.3:CRS84" } },
"features": [
{ "type": "Feature", "properties": { "name": "Prenton Primary School", "type": 1, "phase": 2, "distance_m": 1373.0 }, "geometry": { "type": "Point", "coordinates": [ -3.052256979424598, 53.366788713701702 ] } },
{ "type": "Feature", "properties": { "name": "Ganneys Meadow Nursery School and Family Centre", "type": 15, "phase": 1, "distance_m": 1687.0 }, "geometry": { "type": "Point", "coordinates": [ -3.082300943634236, 53.376920344314193 ] } },
{ "type": "Feature", "properties": { "name": "Eastway Primary School", "type": 1, "phase": 2, "distance_m": 1079.0 }, "geometry": { "type": "Point", "coordinates": [ -3.106660653327724, 53.405596749304365 ] } },
{ "type": "Feature", "properties": { "name": "Castleway Primary School", "type": 1, "phase": 2, "distance_m": 1947.0 }, "geometry": { "type": "Point", "coordinates": [ -3.097779657338046, 53.415881281530957 ] } },
{ "type": "Feature", "properties": { "name": "Lingham Primary School", "type": 1, "phase": 2, "distance_m": 470.0 }, "geometry": { "type": "Point", "coordinates": [ -3.118724670185104, 53.403299966339084 ] } },
{ "type": "Feature", "properties": { "name": "Thornton Hough Primary School", "type": 1, "phase": 2, "distance_m": 135.0 }, "geometry": { "type": "Point", "coordinates": [ -3.044897361621348, 53.321521505429374 ] } },
{ "type": "Feature", "properties": { "name": "Greasby Infant School", "type": 1, "phase": 2, "distance_m": 569.0 }, "geometry": { "type": "Point", "coordinates": [ -3.121710187466972, 53.373841733895972 ] } },
{ "type": "Feature", "properties": { "name": "West Kirby Primary School", "type": 1, "phase": 2, "distance_m": 1784.0 }, "geometry": { "type": "Point", "coordinates": [ -3.183413769506372, 53.377623516219359 ] } },
{ "type": "Feature", "properties": { "name": "Black Horse Hill Infant School", "type": 1, "phase": 2, "distance_m": 754.0 }, "geometry": { "type": "Point", "coordinates": [ -3.162695094876197, 53.377494567955516 ] } },
{ "type": "Feature", "properties": { "name": "Barnston Primary School", "type": 1, "phase": 2, "distance_m": 1883.0 }, "geometry": { "type": "Point", "coordinates": [ -3.076608780183982, 53.323477771171916 ] } },
{ "type": "Feature", "properties": { "name": "Fender Primary School", "type": 1, "phase": 2, "distance_m": 1687.0 }, "geometry": { "type": "Point", "coordinates": [ -3.082300943634236, 53.376920344314193 ] } },
{ "type": "Feature", "properties": { "name": "Sacred Heart Catholic Primary School", "type": 2, "phase": 2, "distance_m": 1362.0 }, "geometry": { "type": "Point", "coordinates": [ -3.102729537344256, 53.404239827052841 ] } },
{ "type": "Feature", "properties": { "name": "Ladymount Catholic Primary School", "type": 2, "phase": 2, "distance_m": 1811.0 }, "geometry": { "type": "Point", "coordinates": [ -3.104355875903221, 53.341570919084994 ] } },
{ "type": "Feature", "properties": { "name": "St Michael and All Angels Catholic Primary School", "type": 2, "phase": 2, "distance_m": 1228.0 }, "geometry": { "type": "Point", "coordinates": [ -3.07380011457138, 53.371244142500693 ] } },
{ "type": "Feature", "properties": { "name": "Pensby High School", "type": 5, "phase": 4, "distance_m": 1775.0 }, "geometry": { "type": "Point", "coordinates": [ -3.113698314355826, 53.343299873265835 ] } },
{ "type": "Feature", "properties": { "name": "Clare Mount Specialist Sports College", "type": 7, "phase": 0, "distance_m": 1677.0 }, "geometry": { "type": "Point", "coordinates": [ -3.0976592602729, 53.40536523846761 ] } },
{ "type": "Feature", "properties": { "name": "Foxfield School", "type": 7, "phase": 0, "distance_m": 1355.0 }, "geometry": { "type": "Point", "coordinates": [ -3.075284362490958, 53.372884763714112 ] } },
{ "type": "Feature", "properties": { "name": "Meadowside School", "type": 7, "phase": 0, "distance_m": 1305.0 }, "geometry": { "type": "Point", "coordinates": [ -3.089470539643979, 53.37394265280227 ] } },
{ "type": "Feature", "properties": { "name": "Gilbrook School", "type": 7, "phase": 0, "distance_m": 1652.0 }, "geometry": { "type": "Point", "coordinates": [ -3.092168789427498, 53.377765308354945 ] } },
{ "type": "Feature", "properties": { "name": "Stanley School", "type": 7, "phase": 0, "distance_m": 1874.0 }, "geometry": { "type": "Point", "coordinates": [ -3.096345664974705, 53.341393106588903 ] } },
{ "type": "Feature", "properties": { "name": "Brookside Primary School", "type": 1, "phase": 2, "distance_m": 1036.0 }, "geometry": { "type": "Point", "coordinates": [ -2.069665411129237, 53.360415391839481 ] } },
{ "type": "Feature", "properties": { "name": "Buglawton Primary School", "type": 1, "phase": 2, "distance_m": 1845.0 }, "geometry": { "type": "Point", "coordinates": [ -2.194819679925617, 53.170271711570102 ] } },
{ "type": "Feature", "properties": { "name": "Byley Primary School and Nursery", "type": 1, "phase": 2, "distance_m": 798.0 }, "geometry": { "type": "Point", "coordinates": [ -2.41370237079334, 53.21970862817642 ] } },
{ "type": "Feature", "properties": { "name": "Mickle Trafford Village School", "type": 1, "phase": 2, "distance_m": 600.0 }, "geometry": { "type": "Point", "coordinates": [ -2.834811327092413, 53.222365092402946 ] } },
{ "type": "Feature", "properties": { "name": "Upton Westlea Primary School", "type": 1, "phase": 2, "distance_m": 1763.0 }, "geometry": { "type": "Point", "coordinates": [ -2.878611899564668, 53.215299310177535 ] } },
{ "type": "Feature", "properties": { "name": "Sutton Green Primary School", "type": 1, "phase": 2, "distance_m": 1611.0 }, "geometry": { "type": "Point", "coordinates": [ -2.943327102411913, 53.280964493305511 ] } },
{ "type": "Feature", "properties": { "name": "Waverton Community Primary School", "type": 1, "phase": 2, "distance_m": 541.0 }, "geometry": { "type": "Point", "coordinates": [ -2.817496845494381, 53.171238162166745 ] } },
{ "type": "Feature", "properties": { "name": "Tattenhall Park Primary School", "type": 1, "phase": 2, "distance_m": 1401.0 }, "geometry": { "type": "Point", "coordinates": [ -2.785050755592632, 53.134484036152216 ] } },
{ "type": "Feature", "properties": { "name": "Dean Valley Community Primary School", "type": 1, "phase": 2, "distance_m": 802.0 }, "geometry": { "type": "Point", "coordinates": [ -2.11525608744163, 53.294582897098103 ] } },
{ "type": "Feature", "properties": { "name": "Christleton Primary School", "type": 1, "phase": 2, "distance_m": 1012.0 }, "geometry": { "type": "Point", "coordinates": [ -2.83858925330537, 53.183442608336414 ] } },
{ "type": "Feature", "properties": { "name": "Goostrey Community Primary School", "type": 1, "phase": 2, "distance_m": 1351.0 }, "geometry": { "type": "Point", "coordinates": [ -2.332274668872062, 53.225527741089437 ] } },
{ "type": "Feature", "properties": { "name": "Willaston CofE Primary School", "type": 3, "phase": 2, "distance_m": 0.0 }, "geometry": { "type": "Point", "coordinates": [ -3.012723626198595, 53.293573261044912 ] } },
{ "type": "Feature", "properties": { "name": "Bollington Cross CofE Primary School", "type": 3, "phase": 2, "distance_m": 1019.0 }, "geometry": { "type": "Point", "coordinates": [ -2.118699808152784, 53.29209862442849 ] } },
{ "type": "Feature", "properties": { "name": "Tarporley CofE Primary School", "type": 3, "phase": 2, "distance_m": 1354.0 }, "geometry": { "type": "Point", "coordinates": [ -2.666055998843493, 53.157664151062058 ] } },
{ "type": "Feature", "properties": { "name": "Barrow CofE Primary School", "type": 3, "phase": 2, "distance_m": 1409.0 }, "geometry": { "type": "Point", "coordinates": [ -2.795857801467785, 53.211269462708145 ] } },
{ "type": "Feature", "properties": { "name": "Guilden Sutton CofE Primary School", "type": 3, "phase": 2, "distance_m": 180.0 }, "geometry": { "type": "Point", "coordinates": [ -2.831375813888181, 53.208159362382126 ] } },
{ "type": "Feature", "properties": { "name": "St Winefride's Catholic Primary School", "type": 2, "phase": 2, "distance_m": 1945.0 }, "geometry": { "type": "Point", "coordinates": [ -3.053208020782996, 53.286507639431179 ] } },
{ "type": "Feature", "properties": { "name": "Bollington St John's CofE Primary School", "type": 2, "phase": 2, "distance_m": 1186.0 }, "geometry": { "type": "Point", "coordinates": [ -2.101136868499341, 53.293876637631776 ] } },
{ "type": "Feature", "properties": { "name": "Prestbury CofE Primary School", "type": 2, "phase": 2, "distance_m": 539.0 }, "geometry": { "type": "Point", "coordinates": [ -2.152349151364938, 53.292159193724487 ] } },
{ "type": "Feature", "properties": { "name": "Marton and District CofE Aided Primary School", "type": 2, "phase": 2, "distance_m": 383.0 }, "geometry": { "type": "Point", "coordinates": [ -2.223269119386772, 53.212820086580749 ] } },
{ "type": "Feature", "properties": { "name": "St John the Evangelist CofE Primary School Macclesfield", "type": 2, "phase": 2, "distance_m": 1578.0 }, "geometry": { "type": "Point", "coordinates": [ -2.149595807684828, 53.255569455436813 ] } },
{ "type": "Feature", "properties": { "name": "Ellesmere Port Christ Church CofE Primary School", "type": 2, "phase": 2, "distance_m": 1856.0 }, "geometry": { "type": "Point", "coordinates": [ -2.904206183317332, 53.266525548611902 ] } },
{ "type": "Feature", "properties": { "name": "Upton-by-Chester High School", "type": 5, "phase": 4, "distance_m": 1460.0 }, "geometry": { "type": "Point", "coordinates": [ -2.870189132097968, 53.214237486981879 ] } },
{ "type": "Feature", "properties": { "name": "The Whitby High School", "type": 5, "phase": 4, "distance_m": 1629.0 }, "geometry": { "type": "Point", "coordinates": [ -2.911682200750069, 53.263439283344951 ] } },
{ "type": "Feature", "properties": { "name": "Kettleshulme St James CofE (VA) Primary School", "type": 2, "phase": 2, "distance_m": 1810.0 }, "geometry": { "type": "Point", "coordinates": [ -2.01930756247503, 53.313738221706849 ] } },
{ "type": "Feature", "properties": { "name": "Pott Shrigley CofE Primary School", "type": 2, "phase": 2, "distance_m": 756.0 }, "geometry": { "type": "Point", "coordinates": [ -2.084185707565706, 53.309907721633138 ] } },
{ "type": "Feature", "properties": { "name": "Terra Nova School", "type": 11, "phase": 0, "distance_m": 1821.0 }, "geometry": { "type": "Point", "coordinates": [ -2.307095726268953, 53.227635798259648 ] } },
{ "type": "Feature", "properties": { "name": "The King's School In Macclesfield", "type": 11, "phase": 0, "distance_m": 1030.0 }, "geometry": { "type": "Point", "coordinates": [ -2.16675128252712, 53.276859034340994 ] } },
{ "type": "Feature", "properties": { "name": "The Hammond", "type": 11, "phase": 0, "distance_m": 706.0 }, "geometry": { "type": "Point", "coordinates": [ -2.855846576207339, 53.215168382949024 ] } },
{ "type": "Feature", "properties": { "name": "Park Lane School", "type": 7, "phase": 0, "distance_m": 1639.0 }, "geometry": { "type": "Point", "coordinates": [ -2.139776680760625, 53.250583626658276 ] } },
{ "type": "Feature", "properties": { "name": "Archers Brook SEMH Residential School", "type": 7, "phase": 0, "distance_m": 1692.0 }, "geometry": { "type": "Point", "coordinates": [ -2.930543466153776, 53.266241956014383 ] } },
{ "type": "Feature", "properties": { "name": "Combs Infant School", "type": 1, "phase": 2, "distance_m": 1270.0 }, "geometry": { "type": "Point", "coordinates": [ -1.939668554934741, 53.302371980037798 ] } },
{ "type": "Feature", "properties": { "name": "Buxworth Primary School", "type": 1, "phase": 2, "distance_m": 400.0 }, "geometry": { "type": "Point", "coordinates": [ -1.966321776979829, 53.336224802374915 ] } },
{ "type": "Feature", "properties": { "name": "Hope Primary School", "type": 1, "phase": 2, "distance_m": 302.0 }, "geometry": { "type": "Point", "coordinates": [ -1.743651765288992, 53.350120848537792 ] } },
{ "type": "Feature", "properties": { "name": "Newtown Primary School (High Peak Federation)", "type": 1, "phase": 2, "distance_m": 1494.0 }, "geometry": { "type": "Point", "coordinates": [ -2.008254654516982, 53.35908727867929 ] } },
{ "type": "Feature", "properties": { "name": "Whaley Bridge Primary School", "type": 1, "phase": 2, "distance_m": 942.0 }, "geometry": { "type": "Point", "coordinates": [ -1.985186777733389, 53.326637692502359 ] } },
{ "type": "Feature", "properties": { "name": "Furness Vale Primary and Nursery School", "type": 1, "phase": 2, "distance_m": 745.0 }, "geometry": { "type": "Point", "coordinates": [ -1.988679447525491, 53.348210831545096 ] } },
{ "type": "Feature", "properties": { "name": "Peak Dale Primary School", "type": 1, "phase": 2, "distance_m": 216.0 }, "geometry": { "type": "Point", "coordinates": [ -1.870036534160742, 53.284806558826872 ] } },
{ "type": "Feature", "properties": { "name": "Bradwell CofE (Controlled) Infant School & Nursery", "type": 3, "phase": 2, "distance_m": 607.0 }, "geometry": { "type": "Point", "coordinates": [ -1.738356114281724, 53.326837684006236 ] } },
{ "type": "Feature", "properties": { "name": "Castleton CofE Primary School", "type": 3, "phase": 2, "distance_m": 1016.0 }, "geometry": { "type": "Point", "coordinates": [ -1.775038365305337, 53.343424595865557 ] } },
{ "type": "Feature", "properties": { "name": "Dove Holes CofE Primary School", "type": 3, "phase": 2, "distance_m": 311.0 }, "geometry": { "type": "Point", "coordinates": [ -1.886751824344066, 53.29955608546971 ] } },
{ "type": "Feature", "properties": { "name": "Peak Forest Church of England Voluntary Controlled Primary School", "type": 3, "phase": 2, "distance_m": 189.0 }, "geometry": { "type": "Point", "coordinates": [ -1.83029349906707, 53.310059975263393 ] } },
{ "type": "Feature", "properties": { "name": "Taxal and Fernilee CofE Primary School", "type": 3, "phase": 2, "distance_m": 1332.0 }, "geometry": { "type": "Point", "coordinates": [ -1.989331384098024, 53.323519057252213 ] } },
{ "type": "Feature", "properties": { "name": "Chapel-en-le-Frith High School", "type": 1, "phase": 4, "distance_m": 165.0 }, "geometry": { "type": "Point", "coordinates": [ -1.922262899764321, 53.318595528791228 ] } },
{ "type": "Feature", "properties": { "name": "Horton Lodge Community Special School", "type": 7, "phase": 0, "distance_m": 1638.0 }, "geometry": { "type": "Point", "coordinates": [ -2.080190381386978, 53.124380891715028 ] } },
{ "type": "Feature", "properties": { "name": "Heygarth Primary School", "type": 1, "phase": 2, "distance_m": 1926.0 }, "geometry": { "type": "Point", "coordinates": [ -2.973815449491053, 53.315093605882872 ] } },
{ "type": "Feature", "properties": { "name": "Macclesfield College", "type": 18, "phase": 6, "distance_m": 1737.0 }, "geometry": { "type": "Point", "coordinates": [ -2.138098716813325, 53.250774350342773 ] } },
{ "type": "Feature", "properties": { "name": "Middlewich Primary School", "type": 1, "phase": 2, "distance_m": 0.0 }, "geometry": { "type": "Point", "coordinates": [ -2.450959750123394, 53.190772864974321 ] } },
{ "type": "Feature", "properties": { "name": "Chapel-en-le-Frith CofE VC Primary School", "type": 3, "phase": 2, "distance_m": 916.0 }, "geometry": { "type": "Point", "coordinates": [ -1.908577693466326, 53.323322891913726 ] } },
{ "type": "Feature", "properties": { "name": "The Oaks Community Primary School", "type": 1, "phase": 2, "distance_m": 1778.0 }, "geometry": { "type": "Point", "coordinates": [ -2.890633444487468, 53.26706819615594 ] } },
{ "type": "Feature", "properties": { "name": "Woodlands Primary School", "type": 1, "phase": 2, "distance_m": 1600.0 }, "geometry": { "type": "Point", "coordinates": [ -2.917304174099419, 53.263432107749864 ] } },
{ "type": "Feature", "properties": { "name": "Pensby Primary School", "type": 1, "phase": 2, "distance_m": 1773.0 }, "geometry": { "type": "Point", "coordinates": [ -3.099035450884823, 53.342024562754105 ] } },
{ "type": "Feature", "properties": { "name": "Millfields Church of England (Controlled) Primary School", "type": 3, "phase": 2, "distance_m": 1440.0 }, "geometry": { "type": "Point", "coordinates": [ -2.971336083540955, 53.307706839322783 ] } },
{ "type": "Feature", "properties": { "name": "The Fallibroome Academy", "type": 34, "phase": 4, "distance_m": 1211.0 }, "geometry": { "type": "Point", "coordinates": [ -2.1617015875019, 53.270016564827102 ] } },
{ "type": "Feature", "properties": { "name": "Mottram St Andrew Primary Academy", "type": 34, "phase": 2, "distance_m": 437.0 }, "geometry": { "type": "Point", "coordinates": [ -2.188192241699106, 53.303209024862468 ] } },
{ "type": "Feature", "properties": { "name": "Christleton High School", "type": 34, "phase": 4, "distance_m": 650.0 }, "geometry": { "type": "Point", "coordinates": [ -2.833197075601379, 53.1831838116209 ] } },
{ "type": "Feature", "properties": { "name": "West Kirby Grammar School", "type": 34, "phase": 4, "distance_m": 1845.0 }, "geometry": { "type": "Point", "coordinates": [ -3.185093679479996, 53.378029336020866 ] } },
{ "type": "Feature", "properties": { "name": "Holmes Chapel Comprehensive School", "type": 34, "phase": 4, "distance_m": 601.0 }, "geometry": { "type": "Point", "coordinates": [ -2.369025790299399, 53.196915754716578 ] } },
{ "type": "Feature", "properties": { "name": "Neston High School", "type": 34, "phase": 4, "distance_m": 1783.0 }, "geometry": { "type": "Point", "coordinates": [ -3.055052434547733, 53.29682886091183 ] } },
{ "type": "Feature", "properties": { "name": "Hilbre High School", "type": 34, "phase": 4, "distance_m": 851.0 }, "geometry": { "type": "Point", "coordinates": [ -3.16124082124193, 53.375980576386468 ] } },
{ "type": "Feature", "properties": { "name": "Tarporley High School and Sixth Form College", "type": 34, "phase": 4, "distance_m": 926.0 }, "geometry": { "type": "Point", "coordinates": [ -2.665243942973498, 53.153506739017622 ] } },
{ "type": "Feature", "properties": { "name": "St Mary's Catholic Academy", "type": 34, "phase": 2, "distance_m": 1567.0 }, "geometry": { "type": "Point", "coordinates": [ -2.03069785225462, 53.103450707814368 ] } },
{ "type": "Feature", "properties": { "name": "Woodchurch High School", "type": 34, "phase": 4, "distance_m": 1616.0 }, "geometry": { "type": "Point", "coordinates": [ -3.07583207203172, 53.37553159756456 ] } },
{ "type": "Feature", "properties": { "name": "Calday Grange Grammar School", "type": 34, "phase": 4, "distance_m": 1765.0 }, "geometry": { "type": "Point", "coordinates": [ -3.162635696325412, 53.36758912476872 ] } },
{ "type": "Feature", "properties": { "name": "St Edward's Church of England Academy", "type": 34, "phase": 5, "distance_m": 1762.0 }, "geometry": { "type": "Point", "coordinates": [ -2.042004555977875, 53.103519142289834 ] } },
{ "type": "Feature", "properties": { "name": "Worth Primary School", "type": 34, "phase": 2, "distance_m": 1915.0 }, "geometry": { "type": "Point", "coordinates": [ -2.108074093201563, 53.343703805979843 ] } },
{ "type": "Feature", "properties": { "name": "Holmes Chapel Primary School", "type": 34, "phase": 2, "distance_m": 629.0 }, "geometry": { "type": "Point", "coordinates": [ -2.361940063055615, 53.20158477120588 ] } },
{ "type": "Feature", "properties": { "name": "Ash Grove Academy", "type": 34, "phase": 2, "distance_m": 1763.0 }, "geometry": { "type": "Point", "coordinates": [ -2.131770843224838, 53.244866899133264 ] } },
{ "type": "Feature", "properties": { "name": "Our Lady of Pity Catholic Primary  and Nursery School", "type": 34, "phase": 2, "distance_m": 362.0 }, "geometry": { "type": "Point", "coordinates": [ -3.121083346023505, 53.371150896213358 ] } },
{ "type": "Feature", "properties": { "name": "Whirley Primary School", "type": 34, "phase": 2, "distance_m": 706.0 }, "geometry": { "type": "Point", "coordinates": [ -2.172848431755488, 53.264131237459885 ] } },
{ "type": "Feature", "properties": { "name": "Hermitage Primary School", "type": 34, "phase": 2, "distance_m": 462.0 }, "geometry": { "type": "Point", "coordinates": [ -2.351002880114177, 53.204161372832331 ] } },
{ "type": "Feature", "properties": { "name": "Mossley CofE Primary School", "type": 34, "phase": 2, "distance_m": 1077.0 }, "geometry": { "type": "Point", "coordinates": [ -2.186059508085688, 53.150932561465602 ] } },
{ "type": "Feature", "properties": { "name": "Broken Cross Primary Academy and Nursery", "type": 28, "phase": 2, "distance_m": 1141.0 }, "geometry": { "type": "Point", "coordinates": [ -2.160661458503485, 53.256561777901922 ] } },
{ "type": "Feature", "properties": { "name": "Nether Alderley Primary School", "type": 34, "phase": 2, "distance_m": 1699.0 }, "geometry": { "type": "Point", "coordinates": [ -2.236132260882349, 53.286296739060198 ] } },
{ "type": "Feature", "properties": { "name": "High Peak School", "type": 10, "phase": 0, "distance_m": 0.0 }, "geometry": { "type": "Point", "coordinates": [ -2.025159967633113, 53.336864967013454 ] } },
{ "type": "Feature", "properties": { "name": "Ivy Bank Primary School", "type": 34, "phase": 2, "distance_m": 1062.0 }, "geometry": { "type": "Point", "coordinates": [ -2.148942437346804, 53.248720817045793 ] } },
{ "type": "Feature", "properties": { "name": "St Alban's Catholic Primary School, A Voluntary Academy", "type": 34, "phase": 2, "distance_m": 1597.0 }, "geometry": { "type": "Point", "coordinates": [ -2.157261364190951, 53.265402286506898 ] } },
{ "type": "Feature", "properties": { "name": "Upton Priory School", "type": 34, "phase": 2, "distance_m": 1633.0 }, "geometry": { "type": "Point", "coordinates": [ -2.155334831214531, 53.271598075499803 ] } },
{ "type": "Feature", "properties": { "name": "Evergreen", "type": 11, "phase": 0, "distance_m": 1457.0 }, "geometry": { "type": "Point", "coordinates": [ -1.940602679569345, 53.060274671407633 ] } },
{ "type": "Feature", "properties": { "name": "Churnet View Middle School", "type": 34, "phase": 5, "distance_m": 206.0 }, "geometry": { "type": "Point", "coordinates": [ -2.013988293661995, 53.115400259255736 ] } },
{ "type": "Feature", "properties": { "name": "Leek High School", "type": 34, "phase": 4, "distance_m": 645.0 }, "geometry": { "type": "Point", "coordinates": [ -2.009862860359235, 53.107211707068807 ] } },
{ "type": "Feature", "properties": { "name": "Adlington Primary School", "type": 34, "phase": 2, "distance_m": 309.0 }, "geometry": { "type": "Point", "coordinates": [ -2.114963304111241, 53.319580763171373 ] } },
{ "type": "Feature", "properties": { "name": "Bunbury Aldersey CofE Primary School", "type": 34, "phase": 2, "distance_m": 1618.0 }, "geometry": { "type": "Point", "coordinates": [ -2.65595567164854, 53.117080415044114 ] } },
{ "type": "Feature", "properties": { "name": "Calveley Primary Academy", "type": 34, "phase": 2, "distance_m": 28.0 }, "geometry": { "type": "Point", "coordinates": [ -2.586876348563395, 53.125360531964098 ] } },
{ "type": "Feature", "properties": { "name": "The Meadows School", "type": 44, "phase": 0, "distance_m": 645.0 }, "geometry": { "type": "Point", "coordinates": [ -2.009862860359235, 53.107211707068807 ] } },
{ "type": "Feature", "properties": { "name": "Springfield School", "type": 44, "phase": 0, "distance_m": 868.0 }, "geometry": { "type": "Point", "coordinates": [ -2.012028339398339, 53.105647416741228 ] } },
{ "type": "Feature", "properties": { "name": "Great Meols Primary School", "type": 34, "phase": 2, "distance_m": 556.0 }, "geometry": { "type": "Point", "coordinates": [ -3.156217990747745, 53.404749515499077 ] } },
{ "type": "Feature", "properties": { "name": "Eden School", "type": 10, "phase": 0, "distance_m": 854.0 }, "geometry": { "type": "Point", "coordinates": [ -2.171283143785016, 53.25885708669739 ] } },
{ "type": "Feature", "properties": { "name": "Waterhouses CofE Primary Academy", "type": 34, "phase": 2, "distance_m": 539.0 }, "geometry": { "type": "Point", "coordinates": [ -1.884812600798953, 53.054588724086564 ] } },
{ "type": "Feature", "properties": { "name": "Warmingham CofE Primary School", "type": 34, "phase": 2, "distance_m": 1036.0 }, "geometry": { "type": "Point", "coordinates": [ -2.432217142800581, 53.150158259597951 ] } },
{ "type": "Feature", "properties": { "name": "Childer Thornton Primary School", "type": 34, "phase": 2, "distance_m": 1585.0 }, "geometry": { "type": "Point", "coordinates": [ -2.952077712757186, 53.294747106076557 ] } },
{ "type": "Feature", "properties": { "name": "Parklands Community Primary and Nursery School", "type": 34, "phase": 2, "distance_m": 1837.0 }, "geometry": { "type": "Point", "coordinates": [ -2.939921063289639, 53.280218333716014 ] } },
{ "type": "Feature", "properties": { "name": "Gawsworth Primary School", "type": 34, "phase": 2, "distance_m": 178.0 }, "geometry": { "type": "Point", "coordinates": [ -2.166484661254172, 53.231457034902299 ] } },
{ "type": "Feature", "properties": { "name": "Upton Heath CofE Primary School", "type": 34, "phase": 2, "distance_m": 1915.0 }, "geometry": { "type": "Point", "coordinates": [ -2.887216467680068, 53.218615459115163 ] } },
{ "type": "Feature", "properties": { "name": "Little Sutton C of E Primary School", "type": 34, "phase": 2, "distance_m": 935.0 }, "geometry": { "type": "Point", "coordinates": [ -2.955564389257058, 53.28493010709326 ] } },
{ "type": "Feature", "properties": { "name": "Peak School", "type": 44, "phase": 0, "distance_m": 1997.0 }, "geometry": { "type": "Point", "coordinates": [ -1.932962796492474, 53.339770305222665 ] } },
{ "type": "Feature", "properties": { "name": "Horton St Michael's CofE First School", "type": 34, "phase": 2, "distance_m": 1710.0 }, "geometry": { "type": "Point", "coordinates": [ -2.086573256739268, 53.12540115126744 ] } },
{ "type": "Feature", "properties": { "name": "Moreton Christ Church CofE Primary School", "type": 34, "phase": 2, "distance_m": 1263.0 }, "geometry": { "type": "Point", "coordinates": [ -3.111105771835786, 53.397806905419735 ] } },
{ "type": "Feature", "properties": { "name": "Beresford Memorial CofE First School", "type": 34, "phase": 2, "distance_m": 357.0 }, "geometry": { "type": "Point", "coordinates": [ -2.008086218645005, 53.111913090746512 ] } },
{ "type": "Feature", "properties": { "name": "Leek First School", "type": 34, "phase": 2, "distance_m": 946.0 }, "geometry": { "type": "Point", "coordinates": [ -2.013462259033148, 53.105584337026883 ] } },
{ "type": "Feature", "properties": { "name": "Rushton CofE First School", "type": 34, "phase": 2, "distance_m": 812.0 }, "geometry": { "type": "Point", "coordinates": [ -2.091442180514425, 53.159213935213202 ] } },
{ "type": "Feature", "properties": { "name": "All Saints CofE First School", "type": 34, "phase": 2, "distance_m": 1933.0 }, "geometry": { "type": "Point", "coordinates": [ -2.022838843492191, 53.098571459440656 ] } },
{ "type": "Feature", "properties": { "name": "Westwood First School", "type": 34, "phase": 2, "distance_m": 1600.0 }, "geometry": { "type": "Point", "coordinates": [ -2.040377593742557, 53.104661312682836 ] } },
{ "type": "Feature", "properties": { "name": "Acresfield Academy", "type": 34, "phase": 2, "distance_m": 787.0 }, "geometry": { "type": "Point", "coordinates": [ -2.872967174544677, 53.224186103819832 ] } },
{ "type": "Feature", "properties": { "name": "Hope Valley College", "type": 28, "phase": 4, "distance_m": 60.0 }, "geometry": { "type": "Point", "coordinates": [ -1.75147795613213, 53.347602582503406 ] } },
{ "type": "Feature", "properties": { "name": "Compass Community School Staffordshire", "type": 10, "phase": 0, "distance_m": 1813.0 }, "geometry": { "type": "Point", "coordinates": [ -1.90594236017583, 53.032062589257983 ] } },
{ "type": "Feature", "properties": { "name": "Disley Primary School", "type": 34, "phase": 2, "distance_m": 689.0 }, "geometry": { "type": "Point", "coordinates": [ -2.03624744120493, 53.359756145122653 ] } },
{ "type": "Feature", "properties": { "name": "Compass Community Cledford Park", "type": 10, "phase": 0, "distance_m": 0.0 }, "geometry": { "type": "Point", "coordinates": [ -2.428928748579479, 53.18175744038907 ] } },
{ "type": "Feature", "properties": { "name": "Hague Bar Primary School", "type": 34, "phase": 2, "distance_m": 1765.0 }, "geometry": { "type": "Point", "coordinates": [ -2.0284699005041, 53.36824352019967 ] } },
{ "type": "Feature", "properties": { "name": "Middlewich High School", "type": 34, "phase": 4, "distance_m": 0.0 }, "geometry": { "type": "Point", "coordinates": [ -2.447917719765655, 53.19040681037098 ] } },
{ "type": "Feature", "properties": { "name": "Thurstaston Dawpool CofE Primary School", "type": 34, "phase": 2, "distance_m": 676.0 }, "geometry": { "type": "Point", "coordinates": [ -3.133358301019382, 53.353982590487291 ] } },
{ "type": "Feature", "properties": { "name": "Greasby Junior School", "type": 34, "phase": 2, "distance_m": 304.0 }, "geometry": { "type": "Point", "coordinates": [ -3.121145888015577, 53.370098584413995 ] } },
{ "type": "Feature", "properties": { "name": "St Oswald's CofE Primary School", "type": 34, "phase": 2, "distance_m": 1271.0 }, "geometry": { "type": "Point", "coordinates": [ -2.920281194328513, 53.231012382544762 ] } },
{ "type": "Feature", "properties": { "name": "Wimboldsley Community Primary School", "type": 34, "phase": 2, "distance_m": 0.0 }, "geometry": { "type": "Point", "coordinates": [ -2.466048230418822, 53.168898527945061 ] } },
{ "type": "Feature", "properties": { "name": "Heswall Primary School", "type": 34, "phase": 2, "distance_m": 1983.0 }, "geometry": { "type": "Point", "coordinates": [ -3.091003094987918, 53.333333900506005 ] } },
{ "type": "Feature", "properties": { "name": "Thingwall Primary School", "type": 34, "phase": 2, "distance_m": 295.0 }, "geometry": { "type": "Point", "coordinates": [ -3.092911964412008, 53.356301578821537 ] } },
{ "type": "Feature", "properties": { "name": "Chapelhill Primary School", "type": 28, "phase": 2, "distance_m": 1775.0 }, "geometry": { "type": "Point", "coordinates": [ -3.098603568095345, 53.399981112350844 ] } },
{ "type": "Feature", "properties": { "name": "Woodfall Primary and Nursery School", "type": 34, "phase": 2, "distance_m": 1906.0 }, "geometry": { "type": "Point", "coordinates": [ -3.046754119391013, 53.281449643700199 ] } },
{ "type": "Feature", "properties": { "name": "Bradwell Junior School", "type": 28, "phase": 2, "distance_m": 309.0 }, "geometry": { "type": "Point", "coordinates": [ -1.742850715517504, 53.328438443593079 ] } },
{ "type": "Feature", "properties": { "name": "Willow Wood Community Nursery and Primary School", "type": 34, "phase": 2, "distance_m": 1906.0 }, "geometry": { "type": "Point", "coordinates": [ -2.503915384403497, 53.194929191551715 ] } },
{ "type": "Feature", "properties": { "name": "Huxley CofE Primary School", "type": 28, "phase": 2, "distance_m": 312.0 }, "geometry": { "type": "Point", "coordinates": [ -2.729796150805222, 53.147141774396395 ] } },
{ "type": "Feature", "properties": { "name": "The Macclesfield Academy", "type": 28, "phase": 4, "distance_m": 1789.0 }, "geometry": { "type": "Point", "coordinates": [ -2.136253301424751, 53.250156251081798 ] } },
{ "type": "Feature", "properties": { "name": "Irby Primary School", "type": 34, "phase": 2, "distance_m": 425.0 }, "geometry": { "type": "Point", "coordinates": [ -3.112484258543929, 53.357244333744475 ] } },
{ "type": "Feature", "properties": { "name": "Black Horse Hill Junior School", "type": 34, "phase": 2, "distance_m": 754.0 }, "geometry": { "type": "Point", "coordinates": [ -3.162695094876197, 53.377494567955516 ] } },
{ "type": "Feature", "properties": { "name": "Cledford Primary & Nursery Academy", "type": 34, "phase": 2, "distance_m": 0.0 }, "geometry": { "type": "Point", "coordinates": [ -2.44230471090598, 53.181627602666609 ] } },
{ "type": "Feature", "properties": { "name": "Brookdale Primary School", "type": 34, "phase": 2, "distance_m": 1315.0 }, "geometry": { "type": "Point", "coordinates": [ -3.112447224805058, 53.378315111961143 ] } },
{ "type": "Feature", "properties": { "name": "Woodchurch CofE Primary School", "type": 28, "phase": 2, "distance_m": 1163.0 }, "geometry": { "type": "Point", "coordinates": [ -3.089107132275875, 53.372660533694507 ] } },
{ "type": "Feature", "properties": { "name": "St. Mary's Catholic Primary School, a Voluntary Academy", "type": 34, "phase": 2, "distance_m": 0.0 }, "geometry": { "type": "Point", "coordinates": [ -2.449535545959733, 53.18911529355362 ] } },
{ "type": "Feature", "properties": { "name": "South Wirral High School", "type": 34, "phase": 4, "distance_m": 1385.0 }, "geometry": { "type": "Point", "coordinates": [ -2.978755006644743, 53.31120585201127 ] } },
{ "type": "Feature", "properties": { "name": "Oldfield Primary School", "type": 34, "phase": 2, "distance_m": 1705.0 }, "geometry": { "type": "Point", "coordinates": [ -2.853674727574496, 53.197825951718791 ] } },
{ "type": "Feature", "properties": { "name": "Meadow Primary School", "type": 34, "phase": 2, "distance_m": 1681.0 }, "geometry": { "type": "Point", "coordinates": [ -2.925355912761148, 53.265554222913067 ] } },
{ "type": "Feature", "properties": { "name": "High Lane Primary School", "type": 34, "phase": 2, "distance_m": 1629.0 }, "geometry": { "type": "Point", "coordinates": [ -2.069390386591868, 53.366833422976846 ] } },
{ "type": "Feature", "properties": { "name": "Orrets Meadow School", "type": 44, "phase": 0, "distance_m": 1700.0 }, "geometry": { "type": "Point", "coordinates": [ -3.100495402887524, 53.399271530629726 ] } },
{ "type": "Feature", "properties": { "name": "Hoylake Holy Trinity CofE Primary School", "type": 34, "phase": 2, "distance_m": 687.0 }, "geometry": { "type": "Point", "coordinates": [ -3.172105000055809, 53.394985238689927 ] } },
{ "type": "Feature", "properties": { "name": "Capenhurst CofE Primary School", "type": 34, "phase": 2, "distance_m": 520.0 }, "geometry": { "type": "Point", "coordinates": [ -2.949980822512584, 53.257719766909688 ] } },
{ "type": "Feature", "properties": { "name": "Brookhurst Primary School", "type": 34, "phase": 2, "distance_m": 1644.0 }, "geometry": { "type": "Point", "coordinates": [ -2.988693407968516, 53.318449964294665 ] } }
]
}
